[
    {
        "title": "React Native Intro",
        "topic": "react-native",
        "organisator": "Thomas Tränkler",
        "time": "2016-10-11T19:00",
        "host": "Robert Hostlowsky",
        "speakers": "Thomas Tränkler",
        "type": ["presentation", "meetup"],
        "group": "React Native Munich",
        "location": {
            "name": "Codecentric",
            "street": "Elsenheimerstr. 55a",
            "city": "München" 
        }
    },
    {
        "title": "React Native Intro",
        "topic": "react-native",
        "organisator": "Thomas Tränkler",
        "time": "2016-10-27T19:00",
        "host": "Thomas Tränkler",
        "speakers": "Thomas Tränkler",
        "type": ["presentation", "meetup"],
        "group": "React Native Cologne",
        "location": {
            "name": "Intradesys",
            "street": "Dillenburgerstr. 75",
            "city": "Köln"
        }
    },
    {
        "title": "React Native Demo & Live Coding Workshop",
        "topic": "react-native",
        "time": "2016-11-10T19:00",
        "organisator": "Thomas Tränkler",
        "host": "Robert Hostlowsky",
        "speakers": [ "Wolfram Kriesing", "Thomas Tränkler" ],
        "group": "React Native Munich",
        "type": ["presentation", "workshop", "meetup"],
        "location": {
            "name": "Codecentric",
            "street": "Elsenheimerstr. 55a",
            "city": "München" 
        }
    },
    {
        "title": "React Native App Workshop",
        "topic": "react-native",
        "time": "2016-11-28T19:00",
        "organisator": "Thomas Tränkler",
        "host": "Robert Römer",
        "speakers": "Thomas Tränkler",
        "group": "React Native Munich",
        "type": ["workshop", "meetup"],
        "location": {
            "name": "Publicis Pixelpark",
            "street": "Implerstraße 11",
            "city": "München" 
        }
    }
]